{
  "type": "FeatureCollection",
  "features": [
    {
      "type": "Feature",
      "geometry": {
        "type": "Point",
        "coordinates": [6.865217791451906, 45.83321949365825]
      },
      "properties": {
        "name": "Le Tour du Mont Blanc",
        "code": "TMB",
        "distance": "170",
        "length": "7-10 days",
        "elevation": {
          "min": "-10.000",
          "max": "+10.000"
        },
        "difficulty": "Moderate",
        "gpx": "tour_du_mont_blanc.gpx",
        "points": [
          {
            "name": "Aiguille de Bionnassay",
            "coordinates": [6.81900079467079, 45.837168488861025]
          },
          {
            "name": "Dômes de Miage",
            "coordinates": [6.800572330075051, 45.815693529154395]
          },
          {
            "name": "Aiguille du Goûter",
            "coordinates": [6.831320911032362, 45.851069554217354]
          },
          {
            "name": "Aiguilles de la Penaz",
            "coordinates": [6.699486911024293, 45.74500587881309]
          },
          {
            "name": "Aiguille des Glaciers",
            "coordinates": [6.802568753355134, 45.77872378033517]
          },
          {
            "name": "Pyramides Calcaires",
            "coordinates": [6.819874198899301, 45.7622869365314]
          },
          {
            "name": "Mont Fortin",
            "coordinates": [6.871716759934526, 45.76459790724845]
          },
          {
            "name": "Aiguille de Tré la Tête",
            "coordinates": [6.81521457240174, 45.794990913000625]
          },
          {
            "name": "Mont Blanc",
            "coordinates": [6.86530364171782, 45.832980533965824]
          },
          {
            "name": "Aiguille Noire de Peuterey",
            "coordinates": [6.893675368701334, 45.81535829756355]
          },
          {
            "name": "Dent du Géant",
            "coordinates": [6.952009757063493, 45.86253107925643]
          },
          {
            "name": "Grandes Jorasses",
            "coordinates": [6.988049568705449, 45.869139527600176]
          },
          {
            "name": "Aiguille de la Brenva",
            "coordinates": [6.917777816699568, 45.83490533206604]
          },
          {
            "name": "Mont Dolent",
            "coordinates": [7.044469614739828, 45.923094872895454]
          },
          {
            "name": "Grand Combin",
            "coordinates": [7.298985226382368, 45.937193343230824]
          },
          {
            "name": "Aiguille de Triolet",
            "coordinates": [7.02471406870914, 45.91724168408093]
          },
          {
            "name": "Tour Noir",
            "coordinates": [7.037608811039832, 45.94916431701662]
          },
          {
            "name": "Aiguillette d'Argentière",
            "coordinates": [6.912129741729411, 45.98521820118938]
          },
          {
            "name": "Aiguille Verte",
            "coordinates": [6.970058653367063, 45.935114061788646]
          }
        ]
      }
    },
    {
      "type": "Feature",
      "geometry": {
        "type": "Point",
        "coordinates": [9.133863194279673, 42.129379933486675]
      },
      "properties": {
        "name": "La Corse du Nord au Sud",
        "code": "GR 20",
        "distance": "179",
        "length": "2 weeks",
        "elevation": {
          "min": "-0.000",
          "max": "+11.000"
        },
        "difficulty": "Hard",
        "gpx": "corse_du_nord_au_sud.gpx",
        "points": [
          {
            "name": "Cirque de la solitude",
            "coordinates": [8.908290233522612, 42.37859483540604]
          },
          {
            "name": "Monte Cinto",
            "coordinates": [8.945763249401882, 42.37988333470776]
          },
          {
            "name": "Lac de Nino",
            "coordinates": [8.940442515675752, 42.25571664833851]
          },
          {
            "name": "Monte d'Oro",
            "coordinates": [9.098388826101642, 42.137561130158275]
          },
          {
            "name": "Cascade des Anglais",
            "coordinates": [9.110091910756768, 42.11732736931272]
          },
          {
            "name": "Monte Renoso",
            "coordinates": [9.13356674143952, 42.06000598986816]
          },
          {
            "name": "Monte Incudine",
            "coordinates": [9.20741348745481, 41.849537831158834]
          },
          {
            "name": "Aiguilles de Bavella",
            "coordinates": [9.213535686237993, 41.810757637604226]
          }
        ]
      }
    },
    {
      "type": "Feature",
      "geometry": {
        "type": "Point",
        "coordinates": [6.831247713242294, 44.683841113680415]
      },
      "properties": {
        "name": "Le Tour du Queyras",
        "code": "GR 58",
        "distance": "128",
        "length": "8 days",
        "elevation": {
          "min": "-7.700",
          "max": "+7.000"
        },
        "difficulty": "Moderate",
        "gpx": "tour_du_queyras.gpx",
        "points": [
          {
            "name": "Col des Estronques",
            "coordinates": [6.827027030823455, 44.685920688638504]
          },
          {
            "name": "Col de Chamoussière",
            "coordinates": [6.958899453272395, 44.682157889468606]
          },
          {
            "name": "Col Agnel",
            "coordinates": [6.979483480257424, 44.68429009199315]
          },
          {
            "name": "Col Vieux",
            "coordinates": [6.986550164914894, 44.69619042930633]
          },
          {
            "name": "Crête de Peyra Plata",
            "coordinates": [6.979242622593617, 44.78976962147132]
          },
          {
            "name": "Collette de Gilly",
            "coordinates": [6.9600314532809255, 44.79651203405864]
          },
          {
            "name": "Le Grand Laus",
            "coordinates": [6.869783068097605, 44.82253871722548]
          },
          {
            "name": "Les fonts de Cervieres",
            "coordinates": [6.8182204409189655, 44.844230280036385]
          },
          {
            "name": "Col de Furfande",
            "coordinates": [6.710887164917834, 44.73544443669807]
          },
          {
            "name": "Col de Bramousse",
            "coordinates": [6.780912199303034, 44.687732006416844]
          }
        ]
      }
    },
    {
      "type": "Feature",
      "geometry": {
        "type": "Point",
        "coordinates": [55.4811297952491, -21.08610904931653]
      },
      "properties": {
        "name": "La Traversée de la Réunion",
        "code": "GR R2",
        "distance": "145",
        "length": "10 days",
        "elevation": {
          "min": "-8.982",
          "max": "+8.969"
        },
        "difficulty": "Moderate",
        "gpx": "traversee_de_la_reunion.gpx",
        "points": [
          {
            "name": "Roche Écrite",
            "coordinates": [55.460832838783084, -21.01223695342989]
          },
          {
            "name": "Cirque de Mafate",
            "coordinates": [55.427216236574736, -21.049593731512342]
          },
          {
            "name": "Maïdo",
            "coordinates": [55.387949655620844, -21.068428059543095]
          },
          {
            "name": "Col du Taïbit",
            "coordinates": [55.432371521233726, -21.112326443667552]
          },
          {
            "name": "Grand Bénare",
            "coordinates": [55.4225848752036, -21.115670222718837]
          },
          {
            "name": "Piton des Neiges",
            "coordinates": [55.48027039424835, -21.098844072830907]
          },
          {
            "name": "Dimitile",
            "coordinates": [55.482180428640646, -21.19043270831534]
          },
          {
            "name": "Piton de la Fournaise",
            "coordinates": [55.7086687181129, -21.240641663861954]
          }
        ]
      }
    }
  ]
}
